{
    "accenture": [
        {
            "id": 0,
            "name": "Alphavile",
            "country": "Brazil",
            "state": "São Paulo",
            "city": "Barueri",
            "profile": "https://startupi.com.br/wp-content/uploads/2020/01/accenture-1.jpg",
            "latitude": -23.4852324,
            "longitude": -46.864544433009236,
            "address": {
                "street": "Av. Andromeda",
                "complement": "Bloco 11",
                "number": "2.000",
                "zipCode": "06473-900"
            },
            "describle": "Accenture anuncia aquisição da Real Protect Empresa é referência em segurança cibernética",
            "contactURL": "barueri"
        },
        {
            "id": 1,
            "name": "Chacara Santo Antônio",
            "country": "Brazil",
            "state": "São Paulo",
            "city": "São Paulo",
            "profile": "https://startupi.com.br/wp-content/uploads/2020/01/accenture-1.jpg",
            "latitude": -23.628949249999998,
            "longitude": -46.71006813701569,
            "address": {
                "street": "Rua Alexandre Dumas",
                "complement": "",
                "number": "2.051",
                "zipCode": "04717-004"
            },
            "describle": "Accenture anuncia aquisição da Real Protect Empresa é referência em segurança cibernética",
            "contactURL": "barueri"
        },
        {
            "id": 2,
            "name": "Curitiba",
            "country": "Brazil",
            "state": "Paraná",
            "city": "Curitiba",
            "profile": "https://startupi.com.br/wp-content/uploads/2020/01/accenture-1.jpg",
            "latitude": -29.6961245,
            "longitude": -53.8520315,
            "address": {
                "street": "Avenida Mal. Deodoro",
                "complement": "Bloco 22",
                "number": "558",
                "zipCode": "80010-010"
            },
            "describle": "Accenture anuncia aquisição da Real Protect Empresa é referência em segurança cibernética",
            "contactURL": "barueri"
        }
    ]
}